{
  "plus_code" : {
    "compound_code" : "946H+64Q Bharthi Pur, Uttar Pradesh, India",
    "global_code" : "7MR4946H+64Q"
  },
  "results" : [
    {
      "address_components" : [
        {
          "long_name" : "946G+CM5",
          "short_name" : "946G+CM5",
          "types" : [ "plus_code" ]
        },
        {
          "long_name" : "Bharthi Pur",
          "short_name" : "Bharthi Pur",
          "types" : [ "locality", "political" ]
        },
        {
          "long_name" : "Sultanpur",
          "short_name" : "Sultanpur",
          "types" : [ "administrative_area_level_2", "political" ]
        },
        {
          "long_name" : "Uttar Pradesh",
          "short_name" : "UP",
          "types" : [ "administrative_area_level_1", "political" ]
        },
        {
          "long_name" : "India",
          "short_name" : "IN",
          "types" : [ "country", "political" ]
        },
        {
          "long_name" : "228125",
          "short_name" : "228125",
          "types" : [ "postal_code" ]
        }
      ],
      "formatted_address" : "946G+CM5, Bharthi Pur, Uttar Pradesh 228125, India",
      "geometry" : {
        "bounds" : {
          "northeast" : {
            "lat" : 26.3610437,
            "lng" : 82.126845
          },
          "southwest" : {
            "lat" : 26.3609981,
            "lng" : 82.12672760000001
          }
        },
        "location" : {
          "lat" : 26.3610239,
          "lng" : 82.12678769999999
        },
        "location_type" : "ROOFTOP",
        "viewport" : {
          "northeast" : {
            "lat" : 26.3623698802915,
            "lng" : 82.12813528029152
          },
          "southwest" : {
            "lat" : 26.3596719197085,
            "lng" : 82.12543731970851
          }
        }
      },
      "place_id" : "ChIJAVpQQSd6mjkR3t3S9o0oQFQ",
      "types" : [ "premise" ]
    },
    {
      "address_components" : [
        {
          "long_name" : "946G+CM5",
          "short_name" : "946G+CM5",
          "types" : [ "plus_code" ]
        },
        {
          "long_name" : "Bharthi Pur",
          "short_name" : "Bharthi Pur",
          "types" : [ "locality", "political" ]
        },
        {
          "long_name" : "Sultanpur",
          "short_name" : "Sultanpur",
          "types" : [ "administrative_area_level_2", "political" ]
        },
        {
          "long_name" : "Uttar Pradesh",
          "short_name" : "UP",
          "types" : [ "administrative_area_level_1", "political" ]
        },
        {
          "long_name" : "India",
          "short_name" : "IN",
          "types" : [ "country", "political" ]
        },
        {
          "long_name" : "228125",
          "short_name" : "228125",
          "types" : [ "postal_code" ]
        }
      ],
      "formatted_address" : "946G+CM5, Bharthi Pur, Uttar Pradesh 228125, India",
      "geometry" : {
        "location" : {
          "lat" : 26.3610067,
          "lng" : 82.12673099999999
        },
        "location_type" : "GEOMETRIC_CENTER",
        "viewport" : {
          "northeast" : {
            "lat" : 26.3623556802915,
            "lng" : 82.1280799802915
          },
          "southwest" : {
            "lat" : 26.3596577197085,
            "lng" : 82.12538201970848
          }
        }
      },
      "place_id" : "ChIJI4YAW6p7mjkRHtbfNpxY-Ms",
      "types" : [ "establishment", "point_of_interest", "school" ]
    },
    {
      "address_components" : [
        {
          "long_name" : "946H+64",
          "short_name" : "946H+64",
          "types" : [ "plus_code" ]
        },
        {
          "long_name" : "Bharthi Pur",
          "short_name" : "Bharthi Pur",
          "types" : [ "locality", "political" ]
        },
        {
          "long_name" : "Sultanpur",
          "short_name" : "Sultanpur",
          "types" : [ "administrative_area_level_2", "political" ]
        },
        {
          "long_name" : "Uttar Pradesh",
          "short_name" : "UP",
          "types" : [ "administrative_area_level_1", "political" ]
        },
        {
          "long_name" : "India",
          "short_name" : "IN",
          "types" : [ "country", "political" ]
        }
      ],
      "formatted_address" : "946H+64 Bharthi Pur, Uttar Pradesh, India",
      "geometry" : {
        "bounds" : {
          "northeast" : {
            "lat" : 26.360625,
            "lng" : 82.127875
          },
          "southwest" : {
            "lat" : 26.3605,
            "lng" : 82.12774999999999
          }
        },
        "location" : {
          "lat" : 26.36059,
          "lng" : 82.127853
        },
        "location_type" : "GEOMETRIC_CENTER",
        "viewport" : {
          "northeast" : {
            "lat" : 26.3619114802915,
            "lng" : 82.1291614802915
          },
          "southwest" : {
            "lat" : 26.3592135197085,
            "lng" : 82.12646351970849
          }
        }
      },
      "place_id" : "GhIJv0NRoE9cOkARg2xZvi6IVEA",
      "plus_code" : {
        "compound_code" : "946H+64 Bharthi Pur, Uttar Pradesh, India",
        "global_code" : "7MR4946H+64"
      },
      "types" : [ "plus_code" ]
    },
    {
      "address_components" : [
        {
          "long_name" : "Unnamed Road",
          "short_name" : "Unnamed Road",
          "types" : [ "route" ]
        },
        {
          "long_name" : "Babuganj",
          "short_name" : "Babuganj",
          "types" : [ "locality", "political" ]
        },
        {
          "long_name" : "Sultanpur",
          "short_name" : "Sultanpur",
          "types" : [ "administrative_area_level_2", "political" ]
        },
        {
          "long_name" : "Uttar Pradesh",
          "short_name" : "UP",
          "types" : [ "administrative_area_level_1", "political" ]
        },
        {
          "long_name" : "India",
          "short_name" : "IN",
          "types" : [ "country", "political" ]
        },
        {
          "long_name" : "228125",
          "short_name" : "228125",
          "types" : [ "postal_code" ]
        }
      ],
      "formatted_address" : "Unnamed Road, Babuganj, Uttar Pradesh 228125, India",
      "geometry" : {
        "bounds" : {
          "northeast" : {
            "lat" : 26.3606781,
            "lng" : 82.1279461
          },
          "southwest" : {
            "lat" : 26.3601808,
            "lng" : 82.1274277
          }
        },
        "location" : {
          "lat" : 26.3604521,
          "lng" : 82.12766859999999
        },
        "location_type" : "GEOMETRIC_CENTER",
        "viewport" : {
          "northeast" : {
            "lat" : 26.3617784302915,
            "lng" : 82.1290358802915
          },
          "southwest" : {
            "lat" : 26.3590804697085,
            "lng" : 82.12633791970849
          }
        }
      },
      "place_id" : "ChIJ1f2RxIl5mjkRJFqc2vBBJtU",
      "types" : [ "route" ]
    },
    {
      "address_components" : [
        {
          "long_name" : "Bharthi Pur",
          "short_name" : "Bharthi Pur",
          "types" : [ "locality", "political" ]
        },
        {
          "long_name" : "Sultanpur",
          "short_name" : "Sultanpur",
          "types" : [ "administrative_area_level_2", "political" ]
        },
        {
          "long_name" : "Uttar Pradesh",
          "short_name" : "UP",
          "types" : [ "administrative_area_level_1", "political" ]
        },
        {
          "long_name" : "India",
          "short_name" : "IN",
          "types" : [ "country", "political" ]
        }
      ],
      "formatted_address" : "Bharthi Pur, Uttar Pradesh, India",
      "geometry" : {
        "bounds" : {
          "northeast" : {
            "lat" : 26.3656001,
            "lng" : 82.13700999999999
          },
          "southwest" : {
            "lat" : 26.35378,
            "lng" : 82.1251699
          }
        },
        "location" : {
          "lat" : 26.3608245,
          "lng" : 82.1292005
        },
        "location_type" : "APPROXIMATE",
        "viewport" : {
          "northeast" : {
            "lat" : 26.3656001,
            "lng" : 82.13700999999999
          },
          "southwest" : {
            "lat" : 26.35378,
            "lng" : 82.1251699
          }
        }
      },
      "place_id" : "ChIJXwMGA4l5mjkRFF8vBMj0Em8",
      "types" : [ "locality", "political" ]
    },
    {
      "address_components" : [
        {
          "long_name" : "228125",
          "short_name" : "228125",
          "types" : [ "postal_code" ]
        },
        {
          "long_name" : "Sultanpur",
          "short_name" : "Sultanpur",
          "types" : [ "administrative_area_level_2", "political" ]
        },
        {
          "long_name" : "Uttar Pradesh",
          "short_name" : "UP",
          "types" : [ "administrative_area_level_1", "political" ]
        },
        {
          "long_name" : "India",
          "short_name" : "IN",
          "types" : [ "country", "political" ]
        }
      ],
      "formatted_address" : "Uttar Pradesh 228125, India",
      "geometry" : {
        "bounds" : {
          "northeast" : {
            "lat" : 26.3751537,
            "lng" : 82.21409659999999
          },
          "southwest" : {
            "lat" : 26.3006803,
            "lng" : 82.04156329999999
          }
        },
        "location" : {
          "lat" : 26.3322949,
          "lng" : 82.11695499999999
        },
        "location_type" : "APPROXIMATE",
        "viewport" : {
          "northeast" : {
            "lat" : 26.3751537,
            "lng" : 82.21409659999999
          },
          "southwest" : {
            "lat" : 26.3006803,
            "lng" : 82.04156329999999
          }
        }
      },
      "place_id" : "ChIJzTFiHdZ7mjkRoGOghQ3ECbM",
      "types" : [ "postal_code" ]
    },
    {
      "address_components" : [
        {
          "long_name" : "Sultanpur",
          "short_name" : "Sultanpur",
          "types" : [ "administrative_area_level_2", "political" ]
        },
        {
          "long_name" : "Uttar Pradesh",
          "short_name" : "UP",
          "types" : [ "administrative_area_level_1", "political" ]
        },
        {
          "long_name" : "India",
          "short_name" : "IN",
          "types" : [ "country", "political" ]
        }
      ],
      "formatted_address" : "Sultanpur, Uttar Pradesh, India",
      "geometry" : {
        "bounds" : {
          "northeast" : {
            "lat" : 26.51342,
            "lng" : 82.69436999999999
          },
          "southwest" : {
            "lat" : 25.9739499,
            "lng" : 81.80673000000002
          }
        },
        "location" : {
          "lat" : 26.2977026,
          "lng" : 82.12783999999999
        },
        "location_type" : "APPROXIMATE",
        "viewport" : {
          "northeast" : {
            "lat" : 26.51342,
            "lng" : 82.69436999999999
          },
          "southwest" : {
            "lat" : 25.9739499,
            "lng" : 81.80673000000002
          }
        }
      },
      "place_id" : "ChIJmXQdw-R8mjkRLyUEqjTY7io",
      "types" : [ "administrative_area_level_2", "political" ]
    },
    {
      "address_components" : [
        {
          "long_name" : "Uttar Pradesh",
          "short_name" : "UP",
          "types" : [ "administrative_area_level_1", "political" ]
        },
        {
          "long_name" : "India",
          "short_name" : "IN",
          "types" : [ "country", "political" ]
        }
      ],
      "formatted_address" : "Uttar Pradesh, India",
      "geometry" : {
        "bounds" : {
          "northeast" : {
            "lat" : 30.411635,
            "lng" : 84.6743269
          },
          "southwest" : {
            "lat" : 23.871712,
            "lng" : 77.0924369
          }
        },
        "location" : {
          "lat" : 26.8467088,
          "lng" : 80.9461592
        },
        "location_type" : "APPROXIMATE",
        "viewport" : {
          "northeast" : {
            "lat" : 30.411635,
            "lng" : 84.6743269
          },
          "southwest" : {
            "lat" : 23.871712,
            "lng" : 77.0924369
          }
        }
      },
      "place_id" : "ChIJ0wlKe59OmTkRnSQXNm1HpfY",
      "types" : [ "administrative_area_level_1", "political" ]
    },
    {
      "address_components" : [
        {
          "long_name" : "India",
          "short_name" : "IN",
          "types" : [ "country", "political" ]
        }
      ],
      "formatted_address" : "India",
      "geometry" : {
        "bounds" : {
          "northeast" : {
            "lat" : 35.513327,
            "lng" : 97.39535869999999
          },
          "southwest" : {
            "lat" : 6.4626999,
            "lng" : 68.1097
          }
        },
        "location" : {
          "lat" : 20.593684,
          "lng" : 78.96288
        },
        "location_type" : "APPROXIMATE",
        "viewport" : {
          "northeast" : {
            "lat" : 35.513327,
            "lng" : 97.39535869999999
          },
          "southwest" : {
            "lat" : 6.4626999,
            "lng" : 68.1097
          }
        }
      },
      "place_id" : "ChIJkbeSa_BfYzARphNChaFPjNc",
      "types" : [ "country", "political" ]
    }
  ],
  "status" : "OK"
}